,name,name_en,code,lat,lon,has_flightable_airport,time_zone
0,Оха,Okha,OHH,53.516666,142.88333,True,Asia/Srednekolymsk
1,Владивосток,Vladivostok,VVO,43.378574,132.14075,True,Asia/Vladivostok
2,Нефтекамск,Neftekamsk,NEF,56.1,54.35,False,Asia/Yekaterinburg
3,Кислокан,Kislokan,КСЮ,63.5933342,103.95,False,Asia/Krasnoyarsk
4,Уренгой,Urengoy,UEN,65.96,78.38,False,Asia/Yekaterinburg
5,Сургут,Surgut,SGC,61.339916,73.40953,True,Asia/Yekaterinburg
6,Белорецк,Beloreck,BCX,53.933334,58.333332,False,Asia/Yekaterinburg
7,Чегдомын,Chegdomyn,ЧГД,51.1377792,132.93611,True,Asia/Vladivostok
8,Толька,Tolka,ТЬК,63.9869461,82.05139,True,Asia/Yekaterinburg
9,Маган,Magan,GYG,62.10399,129.55028,True,Asia/Yakutsk
10,Череповец,Cherepovets,CEE,59.283333,38.066666,True,Europe/Moscow
11,Колекъеган,Kolekjegan,КЛК,61.7283325,79.11833,False,Asia/Yekaterinburg
12,Брянск,Bryansk,BZK,53.266666,34.333332,True,Europe/Moscow
13,Победа,Pobeda,ПБЕ,49.043335,134.31334,False,Asia/Vladivostok
14,Челябинск,Chelyabinsk,CEK,55.297504,61.51235,True,Asia/Yekaterinburg
15,Хаилино,Khailino,ХАИ,60.9524994,166.83611,False,Asia/Kamchatka
16,Усть-Цильма,Ust-Tsilma,UTS,65.433334,52.2,True,Europe/Moscow
17,Тура,Tura,GOY,64.2758331,100.21639,True,Asia/Krasnoyarsk
18,Сунтар,Suntar,SUY,62.166667,117.633333,True,Asia/Yakutsk
19,Усть-Мая,Ust-Maya,UMS,60.41528,134.54722,True,Asia/Yakutsk
20,Ямбург,Yamburg,ЯМБ,67.9883347,75.09695,True,Asia/Yekaterinburg
21,Суломай,Sulomay,САЙ,62.30749,91.012394,False,Asia/Krasnoyarsk
22,Кепервеем,Keperveyem,KPW,67.84056,166.13917,True,Asia/Kamchatka
23,Диксон,Dikson,DKS,73.51667,80.36667,True,Asia/Krasnoyarsk
24,Терскол,terskol,ТЕЬ,43.256191,42.514451,False,Europe/Moscow
25,Братск,Bratsk,BTK,56.36667,101.816666,True,Asia/Irkutsk
26,Омск,Omsk,OMS,54.957455,73.3167,True,Asia/Omsk
27,Слаутное,Slautnoe,СЛУ,63.1752777,167.97667,False,Asia/Kamchatka
28,Советская Гавань,Sovetskaya Gavan,GVN,48.9575,140.2811111,True,Asia/Vladivostok
29,Ленск,Lensk,ULK,60.72248,114.83152,True,Asia/Yakutsk
30,Тугур,Tugur,ТУУ,53.7733345,136.81833,False,Asia/Vladivostok
31,Киренск,Kirensk,KCK,57.772778,108.060833,True,Asia/Irkutsk
32,Когалым,Kogalym,KGP,62.19583,74.53361,True,Asia/Yekaterinburg
33,Шахтёрск,Shakhtyorsk,EKS,49.190735,142.077703,True,Asia/Sakhalin
34,Архыз,Arkhyz,АХЗ,43.564328,41.280404,False,Europe/Moscow
35,Хатанга,Hatanga,HTG,71.96667,102.5,True,Asia/Krasnoyarsk
36,Ноябрьск,Nojabrxsk,NOJ,63.17673,75.29459,True,Asia/Yekaterinburg
37,Зырянка,Zyryanka,ZKP,65.75,150.9,True,Asia/Srednekolymsk
38,Ербогачён,Erbogachen,ERG,61.275,108.03,True,Asia/Irkutsk
39,Санкт-Петербург,Saint Petersburg,LED,59.939039,30.315785,True,Europe/Moscow
40,Владикавказ,Vladikavkaz,OGZ,43.2,44.6,True,Europe/Moscow
41,Ейск,Yeysk,EIK,46.71056,38.27778,False,Europe/Moscow
42,Петрозаводск,Petrozavodsk,PES,61.683334,34.333332,True,Europe/Moscow
43,Палана,Palana,ПАН,59.081665,159.88861,True,Asia/Kamchatka
44,Вилюйск,Vilyuisk,VYI,63.75639,121.69306,True,Asia/Yakutsk
45,Магнитогорск,Magnitogorsk,MQF,53.45,59.066666,True,Asia/Yekaterinburg
46,Мезень,Mezen,МЗН,65.878334,44.21695,True,Europe/Moscow
47,Красный Чикой,Krasnyiy Chikoy,КСЧ,50.3708344,108.76444,True,Asia/Yakutsk
48,Тикси,Tiksi,IKS,71.7,128.9,True,Asia/Yakutsk
49,Анадырь,Anadyr,DYR,64.73333,177.75,True,Asia/Anadyr
50,Смирных,Smirnykh,СМХ,49.75,142.833328,True,Asia/Sakhalin
51,Самарга,Samarga,СМГ,47.247776,138.78999,False,Asia/Vladivostok
52,Батагай-Алыта,Batagay-Alyta,SUK,67.846707,130.467126,True,Asia/Yakutsk
53,Белая Гора,Belaya Gora,BGN,68.5375,146.1875,True,Asia/Srednekolymsk
54,Дальнереченск,Dalnerechensk,DLR,45.876667,133.735,True,Asia/Vladivostok
55,Удское,Udskoe,УДС,54.501667,134.33833,False,Asia/Vladivostok
56,Варандей,Varandey,VRI,68.82467595607437,58.068846169646534,False,Europe/Moscow
57,Пермь,Perm,PEE,57.920025,56.01918,True,Asia/Yekaterinburg
58,Соболево,Sobolevo,СБО,54.3069458,155.97417,True,Asia/Kamchatka
59,Элиста,Elista,ESL,46.36667,44.333332,True,Europe/Moscow
60,Тобольск,Tobolsk,RMZ,58.13333,68.23333,True,Asia/Yekaterinburg
61,Пенза,Penza,PEZ,53.11852,45.02305,True,Europe/Moscow
62,Южно-Курильск,Kunashir Island,DEE,43.9584,145.683,True,Asia/Sakhalin
63,Йошкар-Ола,Yoshkar-Ola,JOK,56.716667,47.9,True,Europe/Moscow
64,Ессей,Essey,ЕСИ,68.4616699,102.18166,False,Asia/Krasnoyarsk
65,Мирюга,Miriuga,МГА,60.2999992,99.51667,False,Asia/Krasnoyarsk
66,Тиличики,Tilichiki,ТИЛ,60.3852768,166.02556,True,Asia/Kamchatka
67,Усть-Хайрюзово,Ust-Khayryuzovo,УХЙ,57.0991669,156.73584,True,Asia/Kamchatka
68,Норильск,Noril'sk,NSK,69.32312,87.339806,True,Asia/Krasnoyarsk
69,Жиганск,Zhigansk,ZIX,66.766667,123.383333,True,Asia/Yakutsk
70,Никольское,Nikolskoe,НИК,55.1775017,166.045,True,Asia/Kamchatka
71,Горно-Алтайск,Gorno-Altaysk,RGK,51.969166,85.83639,True,Asia/Barnaul
72,Марково,Markovo,KVM,64.6647186,170.4136,True,Asia/Anadyr
73,Нижний Новгород,Nizhniy Novgorod,GOJ,56.218613,43.789764,True,Europe/Moscow
74,Петропавловск-Камчатский,Petropavlovsk-Kamchatsky,PKC,53.016666,158.65,True,Asia/Kamchatka
75,Туруханск,Turukhansk,THX,65.79722,87.93528,True,Asia/Krasnoyarsk
76,Бурный,Burnyj,БУЫ,61.8499985,92.65,False,Asia/Krasnoyarsk
77,Чебоксары,Cheboksary,CSY,56.13333,47.266666,True,Europe/Moscow
78,Смоленск,Smolensk,LNX,54.8,32.05,False,Europe/Moscow
79,Таксимо,Taksimo,TKM,56.3616676,114.92722,True,Asia/Irkutsk
80,Астрахань,Astrakhan,ASF,46.2877,47.999977,True,Europe/Samara
81,Минеральные Воды,Mineralnye Vody,MRV,44.218105,43.085815,True,Europe/Moscow
82,Чкаловский,Chkalovsky,CKL,55.86667,38.051945,False,Europe/Moscow
83,Волгодонск,Volgodonsk,VLK,47.683334,42.083332,False,Europe/Moscow
84,Аян,Ajan,АЯН,56.4302788,138.04973,True,Asia/Vladivostok
85,Новосибирск,Novosibirsk,OVB,55.00901,82.667,True,Asia/Novosibirsk
86,Чиринда,Chirinda,ЧИР,67.5400009,100.41333,False,Asia/Krasnoyarsk
87,Усть-Илимск,Ust-Ilimsk,UIK,58.13333,102.55,True,Asia/Irkutsk
88,Нелькан,Nelkan,НЛН,57.6416664,136.16167,True,Asia/Vladivostok
89,Вершинские,Vershinskie,ВЕШ,57.0333328,70.11667,False,Asia/Yekaterinburg
90,Кострома,Kostroma,KMW,57.75,40.933334,True,Europe/Moscow
91,Великий Устюг,Velikij Ustyug,VUS,60.766666,46.316666,True,Europe/Moscow
92,Новокуровка,Novokurovka,НУВ,48.8499985,134.3,False,Asia/Vladivostok
93,Нижнеангарск,Nizhneangarsk,NZG,55.8011093,109.59389,True,Asia/Irkutsk
94,Апука,Apuka,АПУ,60.439167,169.62111,False,Asia/Kamchatka
95,Рыбинск,Rybinsk,RYB,58.13333,38.86667,False,Europe/Moscow
96,Северо-Енисейский,Severo-Eniseyskiy,VEO,60.373333,93.01667,True,Asia/Krasnoyarsk
97,Красноярск,Krasnojarsk,KJA,56.18113,92.48286,True,Asia/Krasnoyarsk
98,Вагай,Vagay,ВАГ,57.9272232,69.00667,True,Asia/Yekaterinburg
99,Махачкала,Makhachkala,MCX,42.82095,47.65611,True,Europe/Moscow
100,Манилы,Manily,МИЛ,62.4858322,165.3364,True,Asia/Kamchatka
101,Ижевск,Izhevsk,IJK,56.833332,53.466667,True,Europe/Samara
102,Единка,Edinka,ЕДИ,47.1800003,138.64833,False,Asia/Vladivostok
103,Эконда,Ekonda,ЭКО,65.7566681,105.33,False,Asia/Krasnoyarsk
104,Кемерово,Kemerovo,KEJ,55.280567,86.11623,True,Asia/Novokuznetsk
105,Бор,Bor,TGP,61.59,89.97945,True,Asia/Krasnoyarsk
106,Пуг-Юг,Pug-Jug,ПУГ,61.0080566,79.89222,False,Asia/Yekaterinburg
107,Мотыгино,Motygino,MJY,58.1808319,94.74472,True,Asia/Krasnoyarsk
108,Стрежевой,Strezhevoy,SWT,60.5,77.0,True,Asia/Tomsk
109,Олёкминск,Olokminsk,OLZ,60.366667,120.416667,True,Asia/Yakutsk
110,Домбай,Dombay,ДМЙ,43.29069,41.624932,False,Europe/Moscow
111,Азау,azau,АЗА,43.266245,42.48207,False,Europe/Moscow
112,Железногорск,Zheleznogorsk,ЖЕЗ,57.6176256,79.46004,True,Asia/Irkutsk
113,Геленджик,Gelendzik,GDZ,44.566666,38.016666,True,Europe/Moscow
114,Ессентуки,Essentuki,ЕСН,44.046191,42.857295,False,Europe/Moscow
115,Сабетта,Sabetta,SBT,71.25,72.096111,True,Asia/Dushanbe
116,Сеймчан,Seymchan,СМЧ,62.9166679,152.41667,True,Asia/Magadan
117,Хонуу,Khonu,MQJ,66.45,143.233333,True,Asia/Srednekolymsk
118,Орёл,Orel,OEL,52.983334,36.1,False,Europe/Moscow
119,Набережные Челны (Нижнекамск),Naberezhnye Chelny,NBC,55.564125,52.10341,True,Europe/Moscow
120,Залив Лаврентия,Zaliv Lavrentija,ЗЛА,65.5833359,-171.01334,True,Asia/Anadyr
121,Усинск,Usinsk,USK,65.95,57.4,True,Europe/Moscow
122,Казань,Kazan,KZN,55.79083,49.11444,True,Europe/Moscow
123,Калининград,Kaliningrad,KGD,54.882656,20.586645,True,Europe/Kaliningrad
124,Усть-Омчуг,Ust-Omchug,УОМ,61.14759784616266,149.63504661371528,True,Asia/Magadan
125,Нижневартовск,Nizhnevartovsk,NJC,60.9476,76.49145,True,Asia/Yekaterinburg
126,Курган,Kurgan,KRO,55.433334,65.3,True,Asia/Yekaterinburg
127,Краснодар,Krasnodar,KRR,45.034138,39.139004,True,Europe/Moscow
128,Саскылах,Saskylakh,SYS,71.92613,114.08235,True,Asia/Yakutsk
129,Вампугольск,Vampugolsk,ВМП,60.8666649,76.61667,False,Asia/Yekaterinburg
130,Ларьяк,Larjak,ЛРЯ,61.1033325,80.24667,False,Asia/Yekaterinburg
131,Талакан,Talakan,TLK,59.876389,111.044444,True,Asia/Yakutsk
132,Черский,Cherskiy,CYX,68.75,161.35,True,Asia/Srednekolymsk
133,Магас,Magas,IGT,43.16667,44.81667,True,Europe/Moscow
134,Улан-Удэ,Ulan-Ude,UUD,51.833332,107.5,True,Asia/Irkutsk
135,Сусуман,Susuman,ССМ,62.7672195,148.1461,True,Asia/Magadan
136,Ухта,Ukhta,UCT,63.566666,53.8,True,Europe/Moscow
137,Старый Оскол,Stary Oskol,СОЛ,51.3283348,37.76667,True,Europe/Moscow
138,Нарьян-Мар,Naryan-Mar,NNM,67.61667,53.15,True,Europe/Moscow
139,Верхневилюйск,Verhnevilyuisk,VHV,63.45667,120.26444,True,Asia/Yakutsk
140,Киров,Kirov,KVX,58.5,49.35,True,Europe/Moscow
141,Воркута,Vorkuta,VKT,67.48333,63.983334,True,Europe/Moscow
142,Уфа,Ufa,UFA,54.565403,55.884544,True,Asia/Yekaterinburg
143,Омолон,Omolon,ООЛ,65.2383347,160.54195,True,Asia/Anadyr
144,Амдерма,Amderma,AMV,69.76667,61.55,False,Europe/Moscow
145,Игарка,Igarka,IAA,67.433334,86.63333,True,Asia/Krasnoyarsk
146,Иркутск,Irkutsk,IKT,52.273308,104.35607,True,Asia/Irkutsk
147,Оленёк,Olenyok,ONK,68.5,112.433333,True,Asia/Yakutsk
148,Усть-Кут,Ust-Kut,UKX,56.85,105.73333,True,Asia/Irkutsk
149,Чара,Chara,CZR,56.9147224,118.27084,True,Asia/Yakutsk
150,Омсукчан,Omsukchan,ОСУ,62.4583321,155.74556,True,Asia/Magadan
151,Барнаул,Barnaul,BAX,53.361088,83.547646,True,Asia/Barnaul
152,Абакан,Abakan,ABA,53.716667,91.5,True,Asia/Krasnoyarsk
153,Балаково,Balakovo,BWO,51.86667,47.75,False,Europe/Volgograd
154,Сыктывкар,Syktyvkar,SCW,61.666668,50.766666,True,Europe/Moscow
155,Великие Луки,Velikiye Luki,VLU,56.38333,30.616667,False,Europe/Moscow
156,Ванавара,Vanavara,VAQ,60.3566666,102.31,True,Asia/Krasnoyarsk
157,Ачинск,Achinsk,ACS,56.266666,90.566666,False,Asia/Krasnoyarsk
158,Кировск (Апатиты),Kirovsk,KVK,67.583336,33.583332,True,Europe/Moscow
159,Усть-Куйга,Ust-Kuiga,UKG,70.00139,135.54972,True,Asia/Yakutsk
160,Охотск,Okhotsk,OHO,59.416668,143.05,True,Asia/Vladivostok
161,Белоярский,Beloyarsky,EYK,63.696682,66.70121,True,Asia/Yekaterinburg
162,Ярославль,Yaroslavl,IAR,57.61667,39.88333,True,Europe/Moscow
163,Максимовка,Maximovka,МКИ,46.0933342,137.89333,False,Asia/Vladivostok
164,Кускургуль,Kuskurgul,КГЬ,58.0916672,66.605,True,Asia/Yekaterinburg
165,посёлок Провидения,Provideniya,PVS,64.38333,-173.24333,False,Asia/Anadyr
166,Кызыл,Kyzyl,KYZ,51.7,94.46667,True,Asia/Krasnoyarsk
167,Архангельск,Arkhangelsk,ARH,64.594795,40.711903,True,Europe/Moscow
168,Орск,Orsk,OSW,51.2,58.566666,True,Asia/Yekaterinburg
169,Зональное,Zonalnoye,ZZO,50.666668,142.75,True,Asia/Sakhalin
170,Надым,Nadym,NYM,65.48333,72.71667,True,Asia/Yekaterinburg
171,Суринда,Surinda,СДР,62.5499992,97.41666,False,Asia/Krasnoyarsk
172,Депутатский,Deputatsky,DPT,69.39167,139.89917,True,Asia/Vladivostok
173,Байкит,Bajkit,BKA,61.6766663,96.35333,True,Asia/Krasnoyarsk
174,Белокуриха,Belokurikha,БИХ,52.0633316,85.01833,True,Asia/Novokuznetsk
175,Екатеринбург,Yekaterinburg,SVX,56.750336,60.804314,True,Asia/Yekaterinburg
176,Красный Кут,Krasny Kut,КСЫ,50.9602776,46.94556,False,Europe/Samara
177,Вуктыл,Vuktyl,ВТЛ,63.8266678,57.285,False,Europe/Moscow
178,Липецк,Lipetsk,LPK,52.61667,39.6,True,Europe/Moscow
179,Кедровый,Kedrovy,КДД,57.6176256,79.46004,False,Asia/Novosibirsk
180,Таловка,Talovka,ТЛО,62.0486107,166.70056,False,Asia/Kamchatka
181,Нюрба,Nyurba,NYR,63.283333,118.333333,True,Asia/Yakutsk
182,Калуга,Kaluga,KLF,54.5,36.266666,True,Europe/Moscow
183,Тула,Tula,TYA,54.2,37.61667,False,Europe/Moscow
184,Мама,Mama,МАМ,58.2999992,112.88333,True,Asia/Irkutsk
185,Среднеколымск,Srednekolymsk,SEK,67.466667,153.716667,True,Asia/Srednekolymsk
186,Ошарово,Osharovo,ОША,60.3666649,98.3,False,Asia/Krasnoyarsk
187,Котлас,Kotlas,KSZ,61.233334,46.7,True,Europe/Moscow
188,Южно-Сахалинск,Yuzhno-Sakhalinsk,UUS,46.966667,142.75,True,Asia/Srednekolymsk
189,Рязань,Ryazan,RZN,54.63333,39.583332,False,Europe/Moscow
190,Поронайск,Poronaisk,ПАЙ,49.21667,143.1,True,Asia/Sakhalin
191,Владимир,Vladimir,ВЛМ,56.126667,40.31667,True,Europe/Moscow
192,Чита,Chita,HTA,52.033333,113.3,True,Asia/Chita
193,Новокузнецк,Novokuznetsk,NOZ,53.75,87.166664,True,Asia/Novokuznetsk
194,Якутск,Yakutsk,YKS,62.085606,129.75006,True,Asia/Yakutsk
195,Эльбрус,Elbrus,ЭЛБ,43.257928,42.645808,False,Europe/Moscow
196,Ульяновск,Ulyanovsk,ULY,54.3214798,48.3856504,True,Europe/Samara
197,Урай,Uraj,URJ,60.11667,64.833336,True,Asia/Yekaterinburg
198,Новороссийск,Novorossijsk,NOI,44.716667,37.766666,False,Europe/Moscow
199,Печора,Pechora,PEX,65.11667,57.13333,True,Europe/Moscow
200,Пахачи,Pakhachi,ПАЧ,60.5561104,169.10472,True,Asia/Kamchatka
201,Курск,Kursk,URS,51.75,36.266666,True,Europe/Moscow
202,Куюмба,Kujumba,КЮМ,60.9500008,96.96667,False,Asia/Krasnoyarsk
203,Синегорье,Sinegorye,СНГ,62.086505134577564,150.52713219701226,True,Asia/Magadan
204,Средние Пахачи,Srednie Pakhachi,СПХ,60.8183327,169.07445,False,Asia/Kamchatka
205,Былино,Bylino,БЫЛ,60.75,76.81667,False,Asia/Yekaterinburg
206,Светлая,Svetlaya,ETL,46.541111,138.31833,True,Asia/Vladivostok
207,Воронеж,Voronezh,VOZ,51.812355,39.226997,True,Europe/Moscow
208,Итуруп,Iturup,ITU,45.25611,147.95583,True,Asia/Srednekolymsk
209,Кослан,Koslan,КОС,63.4747238,48.84028,False,Europe/Moscow
210,Амурзет,Amurzet,АУР,47.696667,131.098056,True,Asia/Vladivostok
211,Крабозаводское,Krabozavodskoye,КБЗ,43.83028,146.75167,True,Asia/Magadan
212,Игрим,Igrim,IRM,63.200756,64.433945,True,Asia/Yekaterinburg
213,Тверь,Tver,KLD,56.916668,35.916668,False,Europe/Moscow
214,Казачинское,Kazachinskoye,КЗЧ,56.2683334,107.57333,True,Asia/Irkutsk
215,Эгвекинот,Egvekinot,ЭГТ,66.3583298,179.11,True,Asia/Anadyr
216,Ноглики,Nogliki,NGK,51.8,143.16667,True,Asia/Sakhalin
217,Тигиль,Tigil,ТИГ,57.7833328,158.72667,True,Asia/Kamchatka
218,Пластун,Plastun,TLY,44.81465,136.28928,True,Asia/Vladivostok
219,Мужи,Muzhi,МУЖ,65.398056,64.698611,True,Asia/Yekaterinburg
220,Новый Уренгой,Novyj Urengoj,NUX,66.07335,76.522835,True,Asia/Yekaterinburg
221,Москва,Moscow,MOW,55.755786,37.617633,True,Europe/Moscow
222,Учами,Uchami,УМИ,63.8166656,96.43,False,Asia/Krasnoyarsk
223,Дальнегорск,Dalnegorsk,DHG,44.56667,135.61667,True,Asia/Vladivostok
224,Бугульма,Bugulma,UUA,54.61667,52.816666,True,Europe/Moscow
225,Мыс-Каменный,Mys-Kamenny,YMK,68.46843,73.59573,False,Asia/Yekaterinburg
226,Саратов,Saratov,RTW,51.566666,46.066666,True,Europe/Samara
227,Усть-Камчатск,Ust-Kamchatsk,УКЧ,56.2377777,162.68556,True,Asia/Kamchatka
228,Корлики,Korliki,КИЮ,61.5349998,82.40667,False,Asia/Yekaterinburg
229,Енисейск,Eniseysk,EIE,58.466667,92.11667,False,Asia/Krasnoyarsk
230,Бованенково,Bovanenkovo,BVJ,70.2,68.4,True,Asia/Dushanbe
231,Сосновый Бор,Sosnovy Bor,СБР,61.6016655,80.94,False,Asia/Yekaterinburg
232,Романтик,Romantik,РМК,43.5435,41.185261,False,Europe/Moscow
233,Чехломей,Chekhlomej,ЧЕХ,61.1083336,80.595,False,Asia/Yekaterinburg
234,Усть-Кокса,Ust'-Koksa,УКО,50.2635558,85.71014,True,Asia/Novokuznetsk
235,Кавалерово,Kavalerovo,KVR,44.266865,135.0357,True,Asia/Vladivostok
236,Троицко-Печорск,Troitsko-Pechorsk,ТЦП,62.731945,56.19611,False,Europe/Moscow
237,Сочи,Adler/Sochi,AER,43.44884,39.941105,True,Europe/Moscow
238,Итуруп,Iturup Island,BVV,44.928646,147.61337,False,Asia/Sakhalin
239,Агзу,Agzu,АЗУ,47.5966682,138.36833,False,Asia/Vladivostok
240,Мирный,Mirnyj,MJZ,62.533333,114.03333,True,Asia/Yakutsk
241,Оссора,Ossora,ОСО,59.2236099,163.06639,True,Asia/Kamchatka
242,Кодинск,Kodinsk,KNY,58.4799995,99.095,True,Asia/Krasnoyarsk
243,Нефтеюганск,Nefteyugansk,NFG,61.13333,73.05,False,Asia/Yekaterinburg
244,Тутончаны,Tutonchany,ТНЧ,64.2099991,93.79,False,Asia/Krasnoyarsk
245,Иваново,Ivanovo,IWA,56.942955,40.944546,True,Europe/Moscow
246,Николаевск-на-Амуре,Nikolaevsk-na-Amure,NLI,53.15,140.73333,True,Asia/Vladivostok
247,Тарко-Сале,Tarko-Sale,TQL,64.92134,77.797356,True,Asia/Yekaterinburg
248,Магадан,Magadan,GDX,59.916668,150.71666,True,Asia/Magadan
249,Октябрьский,Oktiabrskij,OKT,54.433334,53.38333,False,Asia/Yekaterinburg
250,Анапа,Anapa,AAQ,44.9,37.316666,True,Europe/Moscow
251,Амгу,Amgu,АМУ,45.8416672,137.67833,False,Asia/Vladivostok
252,Ягодное,Yagodnoe,ЯГО,62.5210915402726,149.61951411049986,True,Asia/Magadan
253,Соловецкий,Solovetsky,CSH,65.02944,35.733334,True,Europe/Moscow
254,Бодайбо,Bodaybo,ODO,57.86639,114.2425,True,Asia/Irkutsk
255,Великий Новгород,Novgorod,NVR,58.516666,31.3,False,Europe/Moscow
256,Удачный,Udachnyj,PYJ,66.416664,112.05,True,Asia/Yakutsk
257,Ставрополь,Stavropol,STW,45.333332,42.00833,True,Europe/Moscow
258,Аянка,Ajanka,АЯК,63.7166672,167.58333,False,Asia/Kamchatka
259,Тында,Tynda,TYD,55.283333,124.73333,True,Asia/Yakutsk
260,Саранск,Saransk,SKX,54.166668,45.166668,True,Europe/Moscow
261,Чумикан,Chumikan,ЧМИ,54.6949997,135.28334,True,Asia/Vladivostok
262,Юкта,Jukta,ЮКТ,63.3883324,105.655,False,Asia/Krasnoyarsk
263,Нерюнгри,Neryungri,NER,56.65,124.6,True,Asia/Yakutsk
264,Преображение,Preobrazheniye,RZH,42.90104,133.89621,True,Asia/Vladivostok
265,Большой Ларьяк,Bolshoy Larjak,БОК,61.0766678,80.77666,False,Asia/Yekaterinburg
266,Богородское,Bogorodskoye,BQG,52.378334,140.44833,True,Asia/Vladivostok
267,Кисловодск,Kislovodsk,КСВ,43.912711,42.720079,False,Europe/Moscow
268,Вологда,Vologda,VGD,59.283333,39.95,True,Europe/Moscow
269,Лешуконское,Leshukonskoye,LDG,64.9,45.75,True,Europe/Moscow
270,Зея,Zeja,ЗЕЯ,53.689724,127.09222,True,Asia/Yakutsk
271,Северо-Курильск,Severo-Kurilsk,СКР,50.6663874710616,156.12252280213875,True,Asia/Magadan
272,Самара,Samara,KUF,53.50782,50.14742,True,Europe/Samara
273,Лайтамак,Laitamak,ЛАЙ,58.4119453,67.45834,True,Asia/Yekaterinburg
274,Чемдальск,Chemdalsk,ЧЕМ,59.625,103.32,False,Asia/Krasnoyarsk
275,Эвенск,Evensk,SWV,61.924444,159.231111,True,Asia/Magadan
276,Адамовка,Adamovka,АДМ,51.4833336,59.96667,False,Asia/Yekaterinburg
277,Инта,Inta,INA,66.066666,60.1,True,Europe/Moscow
278,Алдан,Aldan,ADH,58.6,125.4,False,Asia/Yakutsk
279,Кузьмовка,Kuzmovka,КЗВ,62.3118802,92.6323,False,Asia/Krasnoyarsk
280,Берёзово,Berezovo,EZV,63.924583,65.04485,True,Asia/Yekaterinburg
281,Бугуруслан,Buguruslan,БГГ,53.6166649,52.45,False,Asia/Yekaterinburg
282,Стрелка-Чуня,Strelka-Chunya,СЧУ,61.7383347,102.80167,False,Asia/Krasnoyarsk
283,Подволочное,Podvolochnoe,ПДВ,55.2061081,103.37056,False,Asia/Irkutsk
284,Грозный,Groznyy,GRV,43.333332,45.75,True,Europe/Moscow
285,Ханты-Мансийск,Khanty-Mansiysk,HMA,61.02613,69.09714,True,Asia/Yekaterinburg
286,Усть-Коликъеган,Ust-Kolikjegan,УТЕ,61.1116676,78.25,False,Asia/Yekaterinburg
287,Шушенское,Shushenskoe,ШУШ,53.3855553,92.04472,True,Asia/Krasnoyarsk
288,Магдагачи,Magdagachi,GDG,53.466667,125.8,False,Asia/Yakutsk
289,Нальчик,Nalchik,NAL,43.533333,43.7,True,Europe/Moscow
290,Хабаровск,Khabarovsk,KHV,48.524563,135.16861,True,Asia/Vladivostok
291,Поляна Чегет,Glade Cheget,ПЛЧ,43.246289,42.524021,False,Europe/Moscow
292,Певек,Pevek,PWE,69.78333,170.6,True,Asia/Anadyr
293,Волгоград,Volgograd,VOG,48.792,44.354805,True,Europe/Moscow
294,Тюмень,Tyumen,TJM,57.181828,65.35024,True,Asia/Yekaterinburg
295,Батагай,Batagay,BQJ,67.655,134.641667,True,Asia/Vladivostok
296,Комсомольск-на-Амуре,Komsomolsk Na Amure,KXK,50.4,136.95,True,Asia/Vladivostok
297,Благовещенск,Blagoveschensk,BQS,50.416668,127.4,True,Asia/Yakutsk
298,Мурманск,Murmansk,MMK,68.785095,32.759155,True,Europe/Moscow
299,Красноселькуп,Krasnoselkup,KKQ,65.70796,82.456055,True,Asia/Yekaterinburg
300,Нягань,Nyagan,NYA,62.101074,65.60563,True,Asia/Yekaterinburg
301,Озерная,Ozernaya,ОЗР,51.5,156.58333,True,Asia/Kamchatka
302,Каменское,Kamenskoe,КДУ,62.4655571,166.19167,False,Asia/Kamchatka
303,Светлый [ПРУ],Svetly,СЛЙ,50.7999992,60.91667,False,Asia/Yekaterinburg
304,Усть-Нера,Ust-Nera,USR,64.568056,143.236111,True,Asia/Ust-Nera
305,Полигус,Poligus,ПГУ,62.0,94.66666,False,Asia/Krasnoyarsk
306,Покур,Pokur,ПУР,60.9894447,75.48944,False,Asia/Yekaterinburg
307,Богучаны,Boguchany,BGS,58.3805542,97.47278,True,Asia/Krasnoyarsk
308,Хужир,Khuzhir,ХЖР,53.2166672,107.395,True,Asia/Irkutsk
309,Томск,Tomsk,TOF,56.5,84.96667,True,Asia/Novokuznetsk
310,Тамбов,Tambov,TBW,52.716667,41.433334,True,Europe/Moscow
311,Краснокаменск,Krasnokamensk,КНК,50.0499992,118.11667,True,Asia/Yakutsk
312,Радужный,Raduzhnyi,RAT,62.5,77.0,False,Asia/Yekaterinburg
313,Железноводск,Zheleznovodsk,ЖЛН,44.140291,43.010387,False,Europe/Moscow
314,Советский,Sovetsky,OVS,61.33209,63.601887,True,Asia/Yekaterinburg
315,Оренбург,Orenburg,REN,51.79105,55.4567,True,Asia/Yekaterinburg
316,Псков,Pskov,PKV,57.816666,28.3,True,Europe/Moscow
317,Сангар,Sangar,САГ,63.958889,127.42111,True,Asia/Yakutsk
318,Чокурдах,Chokurdah,CKH,70.63333,147.88333,True,Asia/Srednekolymsk
319,Терней,Terney,NEI,45.03333,136.6,True,Asia/Vladivostok
320,Светлогорск,Svetlogorsk,SES,66.8383331,88.40667,True,Asia/Krasnoyarsk
321,Ачайваям,Achayvajam,АЧВ,61.0141678,170.49695,False,Asia/Kamchatka
322,Беринговский,Beringovskiy,БНГ,63.0208321,179.29056,True,Asia/Anadyr
323,Салехард,Salekhard,SLY,66.583336,66.6,True,Asia/Yekaterinburg
324,Херпучи,Kherpuchi,ХРП,52.9749985,138.81667,True,Asia/Vladivostok
325,Шерегеш,Sheregesh,ШГШ,52.926858,87.979982,False,Asia/Novokuznetsk
326,Харута,Kharuta,ХАУ,66.8499985,59.53333,False,Europe/Moscow
327,Белгород,Belgorod,EGO,50.63333,36.65,True,Europe/Moscow
328,Таганрог,Taganrog,TGK,47.243378,38.864017,True,Europe/Moscow
329,Ростов-на-Дону,Rostov,ROV,47.25,39.75,True,Europe/Moscow
330,Ярцево,Yartsevo,YAE,60.2544441,90.19583,True,Asia/Krasnoyarsk
331,Кыра,Kyra,КЫР,49.581065,111.977123,True,Asia/Chita
332,Полины Осипенко,Poliny Osipenko,ПОС,52.4416656,136.48334,False,Asia/Vladivostok
